header: 
  seq: 2129
  stamp: 
    secs: 71
    nsecs: 278000000
  frame_id: "odom"
child_frame_id: "base_footprint"
pose: 
  pose: 
    position: 
      x: -2.0000262206407164
      y: -0.4999590417689398
      z: -0.0010013929914271386
    orientation: 
      x: -8.288030569396741e-06
      y: 0.0038530993914716585
      z: 0.00031830187574644807
      w: 0.9999925260922223
  covariance: [1e-05, 0.0, 0.0, 0.0, 0.0, 0.0, 0.0, 1e-05, 0.0, 0.0, 0.0, 0.0, 0.0, 0.0, 1000000000000.0, 0.0, 0.0, 0.0, 0.0, 0.0, 0.0, 1000000000000.0, 0.0, 0.0, 0.0, 0.0, 0.0, 0.0, 1000000000000.0, 0.0, 0.0, 0.0, 0.0, 0.0, 0.0, 0.001]
twist: 
  twist: 
    linear: 
      x: 7.411114639643055e-08
      y: 6.719423424804381e-07
      z: 0.0
    angular: 
      x: 0.0
      y: 0.0
      z: 9.946664667316136e-06
  covariance: [0.0, 0.0, 0.0, 0.0, 0.0, 0.0, 0.0, 0.0, 0.0, 0.0, 0.0, 0.0, 0.0, 0.0, 0.0, 0.0, 0.0, 0.0, 0.0, 0.0, 0.0, 0.0, 0.0, 0.0, 0.0, 0.0, 0.0, 0.0, 0.0, 0.0, 0.0, 0.0, 0.0, 0.0, 0.0, 0.0]
---
header: 
  seq: 2130
  stamp: 
    secs: 71
    nsecs: 312000000
  frame_id: "odom"
child_frame_id: "base_footprint"
pose: 
  pose: 
    position: 
      x: -2.0000262239782667
      y: -0.4999590221903129
      z: -0.0010013929914571007
    orientation: 
      x: -8.288625271594364e-06
      y: 0.003853099390454182
      z: 0.00031845625903139014
      w: 0.9999925260430688
  covariance: [1e-05, 0.0, 0.0, 0.0, 0.0, 0.0, 0.0, 1e-05, 0.0, 0.0, 0.0, 0.0, 0.0, 0.0, 1000000000000.0, 0.0, 0.0, 0.0, 0.0, 0.0, 0.0, 1000000000000.0, 0.0, 0.0, 0.0, 0.0, 0.0, 0.0, 1000000000000.0, 0.0, 0.0, 0.0, 0.0, 0.0, 0.0, 0.001]
twist: 
  twist: 
    linear: 
      x: 7.41093102560176e-08
      y: 6.719541142762793e-07
      z: 0.0
    angular: 
      x: 0.0
      y: 0.0
      z: 9.946843892642543e-06
  covariance: [0.0, 0.0, 0.0, 0.0, 0.0, 0.0, 0.0, 0.0, 0.0, 0.0, 0.0, 0.0, 0.0, 0.0, 0.0, 0.0, 0.0, 0.0, 0.0, 0.0, 0.0, 0.0, 0.0, 0.0, 0.0, 0.0, 0.0, 0.0, 0.0, 0.0, 0.0, 0.0, 0.0, 0.0, 0.0, 0.0]
---
header: 
  seq: 2131
  stamp: 
    secs: 71
    nsecs: 345000000
  frame_id: "odom"
child_frame_id: "base_footprint"
pose: 
  pose: 
    position: 
      x: -2.0000262272176674
      y: -0.4999590031874853
      z: -0.0010013929914861608
    orientation: 
      x: -8.289202483909485e-06
      y: 0.0038530993894665263
      z: 0.0003186061019786388
      w: 0.9999925259953375
  covariance: [1e-05, 0.0, 0.0, 0.0, 0.0, 0.0, 0.0, 1e-05, 0.0, 0.0, 0.0, 0.0, 0.0, 0.0, 1000000000000.0, 0.0, 0.0, 0.0, 0.0, 0.0, 0.0, 1000000000000.0, 0.0, 0.0, 0.0, 0.0, 0.0, 0.0, 1000000000000.0, 0.0, 0.0, 0.0, 0.0, 0.0, 0.0, 0.001]
twist: 
  twist: 
    linear: 
      x: 7.410753278272854e-08
      y: 6.719655095152846e-07
      z: 0.0
    angular: 
      x: 0.0
      y: 0.0
      z: 9.947017386917245e-06
  covariance: [0.0, 0.0, 0.0, 0.0, 0.0, 0.0, 0.0, 0.0, 0.0, 0.0, 0.0, 0.0, 0.0, 0.0, 0.0, 0.0, 0.0, 0.0, 0.0, 0.0, 0.0, 0.0, 0.0, 0.0, 0.0, 0.0, 0.0, 0.0, 0.0, 0.0, 0.0, 0.0, 0.0, 0.0, 0.0, 0.0]
---
header: 
  seq: 2132
  stamp: 
    secs: 71
    nsecs: 378000000
  frame_id: "odom"
child_frame_id: "base_footprint"
pose: 
  pose: 
    position: 
      x: -2.000026230457082
      y: -0.4999589841846156
      z: -0.0010013929915152486
    orientation: 
      x: -8.28977969752112e-06
      y: 0.003853099388478823
      z: 0.0003187559452663669
      w: 0.999992525947584
  covariance: [1e-05, 0.0, 0.0, 0.0, 0.0, 0.0, 0.0, 1e-05, 0.0, 0.0, 0.0, 0.0, 0.0, 0.0, 1000000000000.0, 0.0, 0.0, 0.0, 0.0, 0.0, 0.0, 1000000000000.0, 0.0, 0.0, 0.0, 0.0, 0.0, 0.0, 1000000000000.0, 0.0, 0.0, 0.0, 0.0, 0.0, 0.0, 0.001]
twist: 
  twist: 
    linear: 
      x: 7.410575403146114e-08
      y: 6.719769127697039e-07
      z: 0.0
    angular: 
      x: 0.0
      y: 0.0
      z: 9.94719100319814e-06
  covariance: [0.0, 0.0, 0.0, 0.0, 0.0, 0.0, 0.0, 0.0, 0.0, 0.0, 0.0, 0.0, 0.0, 0.0, 0.0, 0.0, 0.0, 0.0, 0.0, 0.0, 0.0, 0.0, 0.0, 0.0, 0.0, 0.0, 0.0, 0.0, 0.0, 0.0, 0.0, 0.0, 0.0, 0.0, 0.0, 0.0]
---
header: 
  seq: 2133
  stamp: 
    secs: 71
    nsecs: 411000000
  frame_id: "odom"
child_frame_id: "base_footprint"
pose: 
  pose: 
    position: 
      x: -2.0000262337946744
      y: -0.4999589646058574
      z: -0.00100139299154519
    orientation: 
      x: -8.290374403791099e-06
      y: 0.0038530993874609717
      z: 0.00031891032961709506
      w: 0.9999925258983599
  covariance: [1e-05, 0.0, 0.0, 0.0, 0.0, 0.0, 0.0, 1e-05, 0.0, 0.0, 0.0, 0.0, 0.0, 0.0, 1000000000000.0, 0.0, 0.0, 0.0, 0.0, 0.0, 0.0, 1000000000000.0, 0.0, 0.0, 0.0, 0.0, 0.0, 0.0, 1000000000000.0, 0.0, 0.0, 0.0, 0.0, 0.0, 0.0, 0.001]
twist: 
  twist: 
    linear: 
      x: 7.410391759085706e-08
      y: 6.719886866356612e-07
      z: 0.0
    angular: 
      x: 0.0
      y: 0.0
      z: 9.947370260595612e-06
  covariance: [0.0, 0.0, 0.0, 0.0, 0.0, 0.0, 0.0, 0.0, 0.0, 0.0, 0.0, 0.0, 0.0, 0.0, 0.0, 0.0, 0.0, 0.0, 0.0, 0.0, 0.0, 0.0, 0.0, 0.0, 0.0, 0.0, 0.0, 0.0, 0.0, 0.0, 0.0, 0.0, 0.0, 0.0, 0.0, 0.0]
---
header: 
  seq: 2134
  stamp: 
    secs: 71
    nsecs: 444000000
  frame_id: "odom"
child_frame_id: "base_footprint"
pose: 
  pose: 
    position: 
      x: -2.000026237034116
      y: -0.4999589456029021
      z: -0.001001392991574264
    orientation: 
      x: -8.290951620037008e-06
      y: 0.0038530993864731517
      z: 0.0003190601735998548
      w: 0.9999925258505605
  covariance: [1e-05, 0.0, 0.0, 0.0, 0.0, 0.0, 0.0, 1e-05, 0.0, 0.0, 0.0, 0.0, 0.0, 0.0, 1000000000000.0, 0.0, 0.0, 0.0, 0.0, 0.0, 0.0, 1000000000000.0, 0.0, 0.0, 0.0, 0.0, 0.0, 0.0, 1000000000000.0, 0.0, 0.0, 0.0, 0.0, 0.0, 0.0, 0.001]
twist: 
  twist: 
    linear: 
      x: 7.410213822916222e-08
      y: 6.720000943850298e-07
      z: 0.0
    angular: 
      x: 0.0
      y: 0.0
      z: 9.947543945253238e-06
  covariance: [0.0, 0.0, 0.0, 0.0, 0.0, 0.0, 0.0, 0.0, 0.0, 0.0, 0.0, 0.0, 0.0, 0.0, 0.0, 0.0, 0.0, 0.0, 0.0, 0.0, 0.0, 0.0, 0.0, 0.0, 0.0, 0.0, 0.0, 0.0, 0.0, 0.0, 0.0, 0.0, 0.0, 0.0, 0.0, 0.0]
---
header: 
  seq: 2135
  stamp: 
    secs: 71
    nsecs: 477000000
  frame_id: "odom"
child_frame_id: "base_footprint"
pose: 
  pose: 
    position: 
      x: -2.0000262402735713
      y: -0.49995892659990476
      z: -0.001001392991603331
    orientation: 
      x: -8.291528837661751e-06
      y: 0.003853099385485093
      z: 0.0003192100179243533
      w: 0.9999925258027386
  covariance: [1e-05, 0.0, 0.0, 0.0, 0.0, 0.0, 0.0, 1e-05, 0.0, 0.0, 0.0, 0.0, 0.0, 0.0, 1000000000000.0, 0.0, 0.0, 0.0, 0.0, 0.0, 0.0, 1000000000000.0, 0.0, 0.0, 0.0, 0.0, 0.0, 0.0, 1000000000000.0, 0.0, 0.0, 0.0, 0.0, 0.0, 0.0, 0.001]
twist: 
  twist: 
    linear: 
      x: 7.410036003773346e-08
      y: 6.720114935813738e-07
      z: 0.0
    angular: 
      x: 0.0
      y: 0.0
      z: 9.947717499614284e-06
  covariance: [0.0, 0.0, 0.0, 0.0, 0.0, 0.0, 0.0, 0.0, 0.0, 0.0, 0.0, 0.0, 0.0, 0.0, 0.0, 0.0, 0.0, 0.0, 0.0, 0.0, 0.0, 0.0, 0.0, 0.0, 0.0, 0.0, 0.0, 0.0, 0.0, 0.0, 0.0, 0.0, 0.0, 0.0, 0.0, 0.0]
---
header: 
  seq: 2136
  stamp: 
    secs: 71
    nsecs: 511000000
  frame_id: "odom"
child_frame_id: "base_footprint"
pose: 
  pose: 
    position: 
      x: -2.000026243611206
      y: -0.49995890702101514
      z: -0.0010013929916332896
    orientation: 
      x: -8.292123548091968e-06
      y: 0.003853099384467062
      z: 0.00031936440334198214
      w: 0.9999925257534438
  covariance: [1e-05, 0.0, 0.0, 0.0, 0.0, 0.0, 0.0, 1e-05, 0.0, 0.0, 0.0, 0.0, 0.0, 0.0, 1000000000000.0, 0.0, 0.0, 0.0, 0.0, 0.0, 0.0, 1000000000000.0, 0.0, 0.0, 0.0, 0.0, 0.0, 0.0, 1000000000000.0, 0.0, 0.0, 0.0, 0.0, 0.0, 0.0, 0.001]
twist: 
  twist: 
    linear: 
      x: 7.409852567782117e-08
      y: 6.720232536339008e-07
      z: 0.0
    angular: 
      x: 0.0
      y: 0.0
      z: 9.947896547951611e-06
  covariance: [0.0, 0.0, 0.0, 0.0, 0.0, 0.0, 0.0, 0.0, 0.0, 0.0, 0.0, 0.0, 0.0, 0.0, 0.0, 0.0, 0.0, 0.0, 0.0, 0.0, 0.0, 0.0, 0.0, 0.0, 0.0, 0.0, 0.0, 0.0, 0.0, 0.0, 0.0, 0.0, 0.0, 0.0, 0.0, 0.0]
---
header: 
  seq: 2137
  stamp: 
    secs: 71
    nsecs: 545000000
  frame_id: "odom"
child_frame_id: "base_footprint"
pose: 
  pose: 
    position: 
      x: -2.0000262468506884
      y: -0.4999588880179323
      z: -0.0010013929916623636
    orientation: 
      x: -8.29270076834749e-06
      y: 0.0038530993834788455
      z: 0.0003195142483592023
      w: 0.9999925257055762
  covariance: [1e-05, 0.0, 0.0, 0.0, 0.0, 0.0, 0.0, 1e-05, 0.0, 0.0, 0.0, 0.0, 0.0, 0.0, 1000000000000.0, 0.0, 0.0, 0.0, 0.0, 0.0, 0.0, 1000000000000.0, 0.0, 0.0, 0.0, 0.0, 0.0, 0.0, 1000000000000.0, 0.0, 0.0, 0.0, 0.0, 0.0, 0.0, 0.001]
twist: 
  twist: 
    linear: 
      x: 7.409674539866042e-08
      y: 6.720346672036845e-07
      z: 0.0
    angular: 
      x: 0.0
      y: 0.0
      z: 9.948070320551388e-06
  covariance: [0.0, 0.0, 0.0, 0.0, 0.0, 0.0, 0.0, 0.0, 0.0, 0.0, 0.0, 0.0, 0.0, 0.0, 0.0, 0.0, 0.0, 0.0, 0.0, 0.0, 0.0, 0.0, 0.0, 0.0, 0.0, 0.0, 0.0, 0.0, 0.0, 0.0, 0.0, 0.0, 0.0, 0.0, 0.0, 0.0]
---
header: 
  seq: 2138
  stamp: 
    secs: 71
    nsecs: 578000000
  frame_id: "odom"
child_frame_id: "base_footprint"
pose: 
  pose: 
    position: 
      x: -2.000026250090184
      y: -0.4999588690148074
      z: -0.0010013929916914376
    orientation: 
      x: -8.2932779899712e-06
      y: 0.0038530993824906546
      z: 0.000319664093718772
      w: 0.9999925256576858
  covariance: [1e-05, 0.0, 0.0, 0.0, 0.0, 0.0, 0.0, 1e-05, 0.0, 0.0, 0.0, 0.0, 0.0, 0.0, 1000000000000.0, 0.0, 0.0, 0.0, 0.0, 0.0, 0.0, 1000000000000.0, 0.0, 0.0, 0.0, 0.0, 0.0, 0.0, 1000000000000.0, 0.0, 0.0, 0.0, 0.0, 0.0, 0.0, 0.001]
twist: 
  twist: 
    linear: 
      x: 7.409496613351084e-08
      y: 6.720460742585927e-07
      z: 0.0
    angular: 
      x: 0.0
      y: 0.0
      z: 9.948243993632594e-06
  covariance: [0.0, 0.0, 0.0, 0.0, 0.0, 0.0, 0.0, 0.0, 0.0, 0.0, 0.0, 0.0, 0.0, 0.0, 0.0, 0.0, 0.0, 0.0, 0.0, 0.0, 0.0, 0.0, 0.0, 0.0, 0.0, 0.0, 0.0, 0.0, 0.0, 0.0, 0.0, 0.0, 0.0, 0.0, 0.0, 0.0]
---
header: 
  seq: 2139
  stamp: 
    secs: 71
    nsecs: 612000000
  frame_id: "odom"
child_frame_id: "base_footprint"
pose: 
  pose: 
    position: 
      x: -2.0000262534278614
      y: -0.4999588494357861
      z: -0.0010013929917213893
    orientation: 
      x: -8.293872704551457e-06
      y: 0.003853099381472355
      z: 0.00031981848020485703
      w: 0.9999925256083207
  covariance: [1e-05, 0.0, 0.0, 0.0, 0.0, 0.0, 0.0, 1e-05, 0.0, 0.0, 0.0, 0.0, 0.0, 0.0, 1000000000000.0, 0.0, 0.0, 0.0, 0.0, 0.0, 0.0, 1000000000000.0, 0.0, 0.0, 0.0, 0.0, 0.0, 0.0, 1000000000000.0, 0.0, 0.0, 0.0, 0.0, 0.0, 0.0, 0.001]
twist: 
  twist: 
    linear: 
      x: 7.409313243556815e-08
      y: 6.720578293012866e-07
      z: 0.0
    angular: 
      x: 0.0
      y: 0.0
      z: 9.948422964946411e-06
  covariance: [0.0, 0.0, 0.0, 0.0, 0.0, 0.0, 0.0, 0.0, 0.0, 0.0, 0.0, 0.0, 0.0, 0.0, 0.0, 0.0, 0.0, 0.0, 0.0, 0.0, 0.0, 0.0, 0.0, 0.0, 0.0, 0.0, 0.0, 0.0, 0.0, 0.0, 0.0, 0.0, 0.0, 0.0, 0.0, 0.0]
---
header: 
  seq: 2140
  stamp: 
    secs: 71
    nsecs: 645000000
  frame_id: "odom"
child_frame_id: "base_footprint"
pose: 
  pose: 
    position: 
      x: -2.0000262566673848
      y: -0.4999588304325756
      z: -0.0010013929917504702
    orientation: 
      x: -8.294449928844316e-06
      y: 0.0038530993804839135
      z: 0.00031996832625834484
      w: 0.9999925255603848
  covariance: [1e-05, 0.0, 0.0, 0.0, 0.0, 0.0, 0.0, 1e-05, 0.0, 0.0, 0.0, 0.0, 0.0, 0.0, 1000000000000.0, 0.0, 0.0, 0.0, 0.0, 0.0, 0.0, 1000000000000.0, 0.0, 0.0, 0.0, 0.0, 0.0, 0.0, 1000000000000.0, 0.0, 0.0, 0.0, 0.0, 0.0, 0.0, 0.001]
twist: 
  twist: 
    linear: 
      x: 7.40913535742091e-08
      y: 6.720692326800022e-07
      z: 0.0
    angular: 
      x: 0.0
      y: 0.0
      z: 9.948596586053887e-06
  covariance: [0.0, 0.0, 0.0, 0.0, 0.0, 0.0, 0.0, 0.0, 0.0, 0.0, 0.0, 0.0, 0.0, 0.0, 0.0, 0.0, 0.0, 0.0, 0.0, 0.0, 0.0, 0.0, 0.0, 0.0, 0.0, 0.0, 0.0, 0.0, 0.0, 0.0, 0.0, 0.0, 0.0, 0.0, 0.0, 0.0]
---
header: 
  seq: 2141
  stamp: 
    secs: 71
    nsecs: 678000000
  frame_id: "odom"
child_frame_id: "base_footprint"
pose: 
  pose: 
    position: 
      x: -2.0000262599069223
      y: -0.4999588114293232
      z: -0.0010013929917795372
    orientation: 
      x: -8.295027154411585e-06
      y: 0.003853099379495351
      z: 0.0003201181726531183
      w: 0.999992525512426
  covariance: [1e-05, 0.0, 0.0, 0.0, 0.0, 0.0, 0.0, 1e-05, 0.0, 0.0, 0.0, 0.0, 0.0, 0.0, 1000000000000.0, 0.0, 0.0, 0.0, 0.0, 0.0, 0.0, 1000000000000.0, 0.0, 0.0, 0.0, 0.0, 0.0, 0.0, 1000000000000.0, 0.0, 0.0, 0.0, 0.0, 0.0, 0.0, 0.001]
twist: 
  twist: 
    linear: 
      x: 7.408957258681977e-08
      y: 6.720806511280336e-07
      z: 0.0
    angular: 
      x: 0.0
      y: 0.0
      z: 9.948770432247245e-06
  covariance: [0.0, 0.0, 0.0, 0.0, 0.0, 0.0, 0.0, 0.0, 0.0, 0.0, 0.0, 0.0, 0.0, 0.0, 0.0, 0.0, 0.0, 0.0, 0.0, 0.0, 0.0, 0.0, 0.0, 0.0, 0.0, 0.0, 0.0, 0.0, 0.0, 0.0, 0.0, 0.0, 0.0, 0.0, 0.0, 0.0]
---
header: 
  seq: 2142
  stamp: 
    secs: 71
    nsecs: 712000000
  frame_id: "odom"
child_frame_id: "base_footprint"
pose: 
  pose: 
    position: 
      x: -2.000026263244642
      y: -0.49995879185017045
      z: -0.001001392991809496
    orientation: 
      x: -8.295621873038766e-06
      y: 0.003853099378476804
      z: 0.00032027256020539127
      w: 0.9999925254629904
  covariance: [1e-05, 0.0, 0.0, 0.0, 0.0, 0.0, 0.0, 1e-05, 0.0, 0.0, 0.0, 0.0, 0.0, 0.0, 1000000000000.0, 0.0, 0.0, 0.0, 0.0, 0.0, 0.0, 1000000000000.0, 0.0, 0.0, 0.0, 0.0, 0.0, 0.0, 1000000000000.0, 0.0, 0.0, 0.0, 0.0, 0.0, 0.0, 0.001]
twist: 
  twist: 
    linear: 
      x: 7.408773706196722e-08
      y: 6.720924189733205e-07
      z: 0.0
    angular: 
      x: 0.0
      y: 0.0
      z: 9.948949597160987e-06
  covariance: [0.0, 0.0, 0.0, 0.0, 0.0, 0.0, 0.0, 0.0, 0.0, 0.0, 0.0, 0.0, 0.0, 0.0, 0.0, 0.0, 0.0, 0.0, 0.0, 0.0, 0.0, 0.0, 0.0, 0.0, 0.0, 0.0, 0.0, 0.0, 0.0, 0.0, 0.0, 0.0, 0.0, 0.0, 0.0, 0.0]
---
header: 
  seq: 2143
  stamp: 
    secs: 71
    nsecs: 745000000
  frame_id: "odom"
child_frame_id: "base_footprint"
pose: 
  pose: 
    position: 
      x: -2.000026266484208
      y: -0.49995877284683254
      z: -0.001001392991838563
    orientation: 
      x: -8.296199101317078e-06
      y: 0.0038530993774880356
      z: 0.0003204224072933392
      w: 0.9999925254149858
  covariance: [1e-05, 0.0, 0.0, 0.0, 0.0, 0.0, 0.0, 1e-05, 0.0, 0.0, 0.0, 0.0, 0.0, 0.0, 1000000000000.0, 0.0, 0.0, 0.0, 0.0, 0.0, 0.0, 1000000000000.0, 0.0, 0.0, 0.0, 0.0, 0.0, 0.0, 1000000000000.0, 0.0, 0.0, 0.0, 0.0, 0.0, 0.0, 0.001]
twist: 
  twist: 
    linear: 
      x: 7.408595832476126e-08
      y: 6.721038217993024e-07
      z: 0.0
    angular: 
      x: 0.0
      y: 0.0
      z: 9.94912320681969e-06
  covariance: [0.0, 0.0, 0.0, 0.0, 0.0, 0.0, 0.0, 0.0, 0.0, 0.0, 0.0, 0.0, 0.0, 0.0, 0.0, 0.0, 0.0, 0.0, 0.0, 0.0, 0.0, 0.0, 0.0, 0.0, 0.0, 0.0, 0.0, 0.0, 0.0, 0.0, 0.0, 0.0, 0.0, 0.0, 0.0, 0.0]
---
header: 
  seq: 2144
  stamp: 
    secs: 71
    nsecs: 778000000
  frame_id: "odom"
child_frame_id: "base_footprint"
pose: 
  pose: 
    position: 
      x: -2.0000262697237874
      y: -0.4999587538434525
      z: -0.0010013929918676369
    orientation: 
      x: -8.29677633089422e-06
      y: 0.0038530993764992116
      z: 0.0003205722547229058
      w: 0.9999925253669589
  covariance: [1e-05, 0.0, 0.0, 0.0, 0.0, 0.0, 0.0, 1e-05, 0.0, 0.0, 0.0, 0.0, 0.0, 0.0, 1000000000000.0, 0.0, 0.0, 0.0, 0.0, 0.0, 0.0, 1000000000000.0, 0.0, 0.0, 0.0, 0.0, 0.0, 0.0, 1000000000000.0, 0.0, 0.0, 0.0, 0.0, 0.0, 0.0, 0.001]
twist: 
  twist: 
    linear: 
      x: 7.408417811129537e-08
      y: 6.721152349942709e-07
      z: 0.0
    angular: 
      x: 0.0
      y: 0.0
      z: 9.949296973619167e-06
  covariance: [0.0, 0.0, 0.0, 0.0, 0.0, 0.0, 0.0, 0.0, 0.0, 0.0, 0.0, 0.0, 0.0, 0.0, 0.0, 0.0, 0.0, 0.0, 0.0, 0.0, 0.0, 0.0, 0.0, 0.0, 0.0, 0.0, 0.0, 0.0, 0.0, 0.0, 0.0, 0.0, 0.0, 0.0, 0.0, 0.0]
---
header: 
  seq: 2145
  stamp: 
    secs: 71
    nsecs: 811000000
  frame_id: "odom"
child_frame_id: "base_footprint"
pose: 
  pose: 
    position: 
      x: -2.00002627306155
      y: -0.4999587342641684
      z: -0.0010013929918975817
    orientation: 
      x: -8.297371053631965e-06
      y: 0.0038530993754802905
      z: 0.0003207266433425561
      w: 0.999992525317453
  covariance: [1e-05, 0.0, 0.0, 0.0, 0.0, 0.0, 0.0, 1e-05, 0.0, 0.0, 0.0, 0.0, 0.0, 0.0, 1000000000000.0, 0.0, 0.0, 0.0, 0.0, 0.0, 0.0, 1000000000000.0, 0.0, 0.0, 0.0, 0.0, 0.0, 0.0, 1000000000000.0, 0.0, 0.0, 0.0, 0.0, 0.0, 0.0, 0.001]
twist: 
  twist: 
    linear: 
      x: 7.408234351959188e-08
      y: 6.72126996962186e-07
      z: 0.0
    angular: 
      x: 0.0
      y: 0.0
      z: 9.949476050453e-06
  covariance: [0.0, 0.0, 0.0, 0.0, 0.0, 0.0, 0.0, 0.0, 0.0, 0.0, 0.0, 0.0, 0.0, 0.0, 0.0, 0.0, 0.0, 0.0, 0.0, 0.0, 0.0, 0.0, 0.0, 0.0, 0.0, 0.0, 0.0, 0.0, 0.0, 0.0, 0.0, 0.0, 0.0, 0.0, 0.0, 0.0]
---
header: 
  seq: 2146
  stamp: 
    secs: 71
    nsecs: 845000000
  frame_id: "odom"
child_frame_id: "base_footprint"
pose: 
  pose: 
    position: 
      x: -2.0000262763011563
      y: -0.49995871526070274
      z: -0.0010013929919266695
    orientation: 
      x: -8.297948285865283e-06
      y: 0.0038530993744913685
      z: 0.0003208764914675119
      w: 0.9999925252693801
  covariance: [1e-05, 0.0, 0.0, 0.0, 0.0, 0.0, 0.0, 1e-05, 0.0, 0.0, 0.0, 0.0, 0.0, 0.0, 1000000000000.0, 0.0, 0.0, 0.0, 0.0, 0.0, 0.0, 1000000000000.0, 0.0, 0.0, 0.0, 0.0, 0.0, 0.0, 1000000000000.0, 0.0, 0.0, 0.0, 0.0, 0.0, 0.0, 0.001]
twist: 
  twist: 
    linear: 
      x: 7.408056459395939e-08
      y: 6.721384008513679e-07
      z: 0.0
    angular: 
      x: 0.0
      y: 0.0
      z: 9.949649675803742e-06
  covariance: [0.0, 0.0, 0.0, 0.0, 0.0, 0.0, 0.0, 0.0, 0.0, 0.0, 0.0, 0.0, 0.0, 0.0, 0.0, 0.0, 0.0, 0.0, 0.0, 0.0, 0.0, 0.0, 0.0, 0.0, 0.0, 0.0, 0.0, 0.0, 0.0, 0.0, 0.0, 0.0, 0.0, 0.0, 0.0, 0.0]
---
header: 
  seq: 2147
  stamp: 
    secs: 71
    nsecs: 877000000
  frame_id: "odom"
child_frame_id: "base_footprint"
pose: 
  pose: 
    position: 
      x: -2.0000262795407764
      y: -0.49995869625719497
      z: -0.00100139299195574
    orientation: 
      x: -8.298525519463699e-06
      y: 0.0038530993735022582
      z: 0.00032102633993405673
      w: 0.9999925252212846
  covariance: [1e-05, 0.0, 0.0, 0.0, 0.0, 0.0, 0.0, 1e-05, 0.0, 0.0, 0.0, 0.0, 0.0, 0.0, 1000000000000.0, 0.0, 0.0, 0.0, 0.0, 0.0, 0.0, 1000000000000.0, 0.0, 0.0, 0.0, 0.0, 0.0, 0.0, 1000000000000.0, 0.0, 0.0, 0.0, 0.0, 0.0, 0.0, 0.001]
twist: 
  twist: 
    linear: 
      x: 7.407878562262287e-08
      y: 6.721498059721332e-07
      z: 0.0
    angular: 
      x: 0.0
      y: 0.0
      z: 9.94982332120043e-06
  covariance: [0.0, 0.0, 0.0, 0.0, 0.0, 0.0, 0.0, 0.0, 0.0, 0.0, 0.0, 0.0, 0.0, 0.0, 0.0, 0.0, 0.0, 0.0, 0.0, 0.0, 0.0, 0.0, 0.0, 0.0, 0.0, 0.0, 0.0, 0.0, 0.0, 0.0, 0.0, 0.0, 0.0, 0.0, 0.0, 0.0]
---
header: 
  seq: 2148
  stamp: 
    secs: 71
    nsecs: 912000000
  frame_id: "odom"
child_frame_id: "base_footprint"
pose: 
  pose: 
    position: 
      x: -2.0000262828785806
      y: -0.4999586766777793
      z: -0.0010013929919856883
    orientation: 
      x: -8.299120246345495e-06
      y: 0.0038530993724831164
      z: 0.0003211807296200177
      w: 0.9999925251717082
  covariance: [1e-05, 0.0, 0.0, 0.0, 0.0, 0.0, 0.0, 1e-05, 0.0, 0.0, 0.0, 0.0, 0.0, 0.0, 1000000000000.0, 0.0, 0.0, 0.0, 0.0, 0.0, 0.0, 1000000000000.0, 0.0, 0.0, 0.0, 0.0, 0.0, 0.0, 1000000000000.0, 0.0, 0.0, 0.0, 0.0, 0.0, 0.0, 0.001]
twist: 
  twist: 
    linear: 
      x: 7.407694992948178e-08
      y: 6.721615748532839e-07
      z: 0.0
    angular: 
      x: 0.0
      y: 0.0
      z: 9.950002502694998e-06
  covariance: [0.0, 0.0, 0.0, 0.0, 0.0, 0.0, 0.0, 0.0, 0.0, 0.0, 0.0, 0.0, 0.0, 0.0, 0.0, 0.0, 0.0, 0.0, 0.0, 0.0, 0.0, 0.0, 0.0, 0.0, 0.0, 0.0, 0.0, 0.0, 0.0, 0.0, 0.0, 0.0, 0.0, 0.0, 0.0, 0.0]
---
header: 
  seq: 2149
  stamp: 
    secs: 71
    nsecs: 945000000
  frame_id: "odom"
child_frame_id: "base_footprint"
pose: 
  pose: 
    position: 
      x: -2.0000262861182283
      y: -0.4999586576741861
      z: -0.0010013929920147727
    orientation: 
      x: -8.299697482596791e-06
      y: 0.003853099371493914
      z: 0.0003213305787807983
      w: 0.9999925251235671
  covariance: [1e-05, 0.0, 0.0, 0.0, 0.0, 0.0, 0.0, 1e-05, 0.0, 0.0, 0.0, 0.0, 0.0, 0.0, 1000000000000.0, 0.0, 0.0, 0.0, 0.0, 0.0, 0.0, 1000000000000.0, 0.0, 0.0, 0.0, 0.0, 0.0, 0.0, 1000000000000.0, 0.0, 0.0, 0.0, 0.0, 0.0, 0.0, 0.001]
twist: 
  twist: 
    linear: 
      x: 7.407516898423683e-08
      y: 6.721729928369517e-07
      z: 0.0
    angular: 
      x: 0.0
      y: 0.0
      z: 9.950176341365395e-06
  covariance: [0.0, 0.0, 0.0, 0.0, 0.0, 0.0, 0.0, 0.0, 0.0, 0.0, 0.0, 0.0, 0.0, 0.0, 0.0, 0.0, 0.0, 0.0, 0.0, 0.0, 0.0, 0.0, 0.0, 0.0, 0.0, 0.0, 0.0, 0.0, 0.0, 0.0, 0.0, 0.0, 0.0, 0.0, 0.0, 0.0]
---
header: 
  seq: 2150
  stamp: 
    secs: 71
    nsecs: 978000000
  frame_id: "odom"
child_frame_id: "base_footprint"
pose: 
  pose: 
    position: 
      x: -2.000026289357889
      y: -0.4999586386705507
      z: -0.0010013929920438536
    orientation: 
      x: -8.300274720190752e-06
      y: 0.0038530993705047237
      z: 0.0003214804282837729
      w: 0.9999925250754031
  covariance: [1e-05, 0.0, 0.0, 0.0, 0.0, 0.0, 0.0, 1e-05, 0.0, 0.0, 0.0, 0.0, 0.0, 0.0, 1000000000000.0, 0.0, 0.0, 0.0, 0.0, 0.0, 0.0, 1000000000000.0, 0.0, 0.0, 0.0, 0.0, 0.0, 0.0, 1000000000000.0, 0.0, 0.0, 0.0, 0.0, 0.0, 0.0, 0.001]
twist: 
  twist: 
    linear: 
      x: 7.407338855619236e-08
      y: 6.721844071940535e-07
      z: 0.0
    angular: 
      x: 0.0
      y: 0.0
      z: 9.950350126953566e-06
  covariance: [0.0, 0.0, 0.0, 0.0, 0.0, 0.0, 0.0, 0.0, 0.0, 0.0, 0.0, 0.0, 0.0, 0.0, 0.0, 0.0, 0.0, 0.0, 0.0, 0.0, 0.0, 0.0, 0.0, 0.0, 0.0, 0.0, 0.0, 0.0, 0.0, 0.0, 0.0, 0.0, 0.0, 0.0, 0.0, 0.0]
---
header: 
  seq: 2151
  stamp: 
    secs: 72
    nsecs:  12000000
  frame_id: "odom"
child_frame_id: "base_footprint"
pose: 
  pose: 
    position: 
      x: -2.0000262926957357
      y: -0.4999586190910036
      z: -0.0010013929920738227
    orientation: 
      x: -8.300869451199044e-06
      y: 0.0038530993694853707
      z: 0.000321634819036906
      w: 0.9999925250257562
  covariance: [1e-05, 0.0, 0.0, 0.0, 0.0, 0.0, 0.0, 1e-05, 0.0, 0.0, 0.0, 0.0, 0.0, 0.0, 1000000000000.0, 0.0, 0.0, 0.0, 0.0, 0.0, 0.0, 1000000000000.0, 0.0, 0.0, 0.0, 0.0, 0.0, 0.0, 1000000000000.0, 0.0, 0.0, 0.0, 0.0, 0.0, 0.0, 0.001]
twist: 
  twist: 
    linear: 
      x: 7.40715560770644e-08
      y: 6.72196154246753e-07
      z: 0.0
    angular: 
      x: 0.0
      y: 0.0
      z: 9.950528978736647e-06
  covariance: [0.0, 0.0, 0.0, 0.0, 0.0, 0.0, 0.0, 0.0, 0.0, 0.0, 0.0, 0.0, 0.0, 0.0, 0.0, 0.0, 0.0, 0.0, 0.0, 0.0, 0.0, 0.0, 0.0, 0.0, 0.0, 0.0, 0.0, 0.0, 0.0, 0.0, 0.0, 0.0, 0.0, 0.0, 0.0, 0.0]
---
header: 
  seq: 2152
  stamp: 
    secs: 72
    nsecs:  45000000
  frame_id: "odom"
child_frame_id: "base_footprint"
pose: 
  pose: 
    position: 
      x: -2.000026295935424
      y: -0.49995860008728277
      z: -0.0010013929921029
    orientation: 
      x: -8.3014466913964e-06
      y: 0.0038530993684958038
      z: 0.0003217846692326132
      w: 0.9999925249775468
  covariance: [1e-05, 0.0, 0.0, 0.0, 0.0, 0.0, 0.0, 1e-05, 0.0, 0.0, 0.0, 0.0, 0.0, 0.0, 1000000000000.0, 0.0, 0.0, 0.0, 0.0, 0.0, 0.0, 1000000000000.0, 0.0, 0.0, 0.0, 0.0, 0.0, 0.0, 1000000000000.0, 0.0, 0.0, 0.0, 0.0, 0.0, 0.0, 0.001]
twist: 
  twist: 
    linear: 
      x: 7.40697767551724e-08
      y: 6.722075604285207e-07
      z: 0.0
    angular: 
      x: 0.0
      y: 0.0
      z: 9.950702639440937e-06
  covariance: [0.0, 0.0, 0.0, 0.0, 0.0, 0.0, 0.0, 0.0, 0.0, 0.0, 0.0, 0.0, 0.0, 0.0, 0.0, 0.0, 0.0, 0.0, 0.0, 0.0, 0.0, 0.0, 0.0, 0.0, 0.0, 0.0, 0.0, 0.0, 0.0, 0.0, 0.0, 0.0, 0.0, 0.0, 0.0, 0.0]
---
header: 
  seq: 2153
  stamp: 
    secs: 72
    nsecs:  78000000
  frame_id: "odom"
child_frame_id: "base_footprint"
pose: 
  pose: 
    position: 
      x: -2.000026299175127
      y: -0.49995858108351976
      z: -0.0010013929921319706
    orientation: 
      x: -8.302023932980387e-06
      y: 0.003853099367506227
      z: 0.00032193451976946137
      w: 0.9999925249293145
  covariance: [1e-05, 0.0, 0.0, 0.0, 0.0, 0.0, 0.0, 1e-05, 0.0, 0.0, 0.0, 0.0, 0.0, 0.0, 1000000000000.0, 0.0, 0.0, 0.0, 0.0, 0.0, 0.0, 1000000000000.0, 0.0, 0.0, 0.0, 0.0, 0.0, 0.0, 1000000000000.0, 0.0, 0.0, 0.0, 0.0, 0.0, 0.0, 0.001]
twist: 
  twist: 
    linear: 
      x: 7.406799628507919e-08
      y: 6.722189754690651e-07
      z: 0.0
    angular: 
      x: 0.0
      y: 0.0
      z: 9.950876434830717e-06
  covariance: [0.0, 0.0, 0.0, 0.0, 0.0, 0.0, 0.0, 0.0, 0.0, 0.0, 0.0, 0.0, 0.0, 0.0, 0.0, 0.0, 0.0, 0.0, 0.0, 0.0, 0.0, 0.0, 0.0, 0.0, 0.0, 0.0, 0.0, 0.0, 0.0, 0.0, 0.0, 0.0, 0.0, 0.0, 0.0, 0.0]
---
header: 
  seq: 2154
  stamp: 
    secs: 72
    nsecs: 112000000
  frame_id: "odom"
child_frame_id: "base_footprint"
pose: 
  pose: 
    position: 
      x: -2.000026302513017
      y: -0.4999585615038411
      z: -0.0010013929921619223
    orientation: 
      x: -8.302618668105924e-06
      y: 0.0038530993664865018
      z: 0.0003220889115903367
      w: 0.999992524879597
  covariance: [1e-05, 0.0, 0.0, 0.0, 0.0, 0.0, 0.0, 1e-05, 0.0, 0.0, 0.0, 0.0, 0.0, 0.0, 1000000000000.0, 0.0, 0.0, 0.0, 0.0, 0.0, 0.0, 1000000000000.0, 0.0, 0.0, 0.0, 0.0, 0.0, 0.0, 1000000000000.0, 0.0, 0.0, 0.0, 0.0, 0.0, 0.0, 0.001]
twist: 
  twist: 
    linear: 
      x: 7.406616347761629e-08
      y: 6.722307255642539e-07
      z: 0.0
    angular: 
      x: 0.0
      y: 0.0
      z: 9.951055331378483e-06
  covariance: [0.0, 0.0, 0.0, 0.0, 0.0, 0.0, 0.0, 0.0, 0.0, 0.0, 0.0, 0.0, 0.0, 0.0, 0.0, 0.0, 0.0, 0.0, 0.0, 0.0, 0.0, 0.0, 0.0, 0.0, 0.0, 0.0, 0.0, 0.0, 0.0, 0.0, 0.0, 0.0, 0.0, 0.0, 0.0, 0.0]
---
header: 
  seq: 2155
  stamp: 
    secs: 72
    nsecs: 145000000
  frame_id: "odom"
child_frame_id: "base_footprint"
pose: 
  pose: 
    position: 
      x: -2.0000263057527476
      y: -0.4999585424999928
      z: -0.0010013929921910102
    orientation: 
      x: -8.303195912326411e-06
      y: 0.003853099365496751
      z: 0.000322238762820703
      w: 0.9999925248313192
  covariance: [1e-05, 0.0, 0.0, 0.0, 0.0, 0.0, 0.0, 1e-05, 0.0, 0.0, 0.0, 0.0, 0.0, 0.0, 1000000000000.0, 0.0, 0.0, 0.0, 0.0, 0.0, 0.0, 1000000000000.0, 0.0, 0.0, 0.0, 0.0, 0.0, 0.0, 1000000000000.0, 0.0, 0.0, 0.0, 0.0, 0.0, 0.0, 0.001]
twist: 
  twist: 
    linear: 
      x: 7.406438365500573e-08
      y: 6.722421359034821e-07
      z: 0.0
    angular: 
      x: 0.0
      y: 0.0
      z: 9.951229054623201e-06
  covariance: [0.0, 0.0, 0.0, 0.0, 0.0, 0.0, 0.0, 0.0, 0.0, 0.0, 0.0, 0.0, 0.0, 0.0, 0.0, 0.0, 0.0, 0.0, 0.0, 0.0, 0.0, 0.0, 0.0, 0.0, 0.0, 0.0, 0.0, 0.0, 0.0, 0.0, 0.0, 0.0, 0.0, 0.0, 0.0, 0.0]
---
header: 
  seq: 2156
  stamp: 
    secs: 72
    nsecs: 178000000
  frame_id: "odom"
child_frame_id: "base_footprint"
pose: 
  pose: 
    position: 
      x: -2.0000263089924917
      y: -0.4999585234961023
      z: -0.0010013929922200807
    orientation: 
      x: -8.303773157943136e-06
      y: 0.0038530993645067547
      z: 0.00032238861439361823
      w: 0.9999925247830187
  covariance: [1e-05, 0.0, 0.0, 0.0, 0.0, 0.0, 0.0, 1e-05, 0.0, 0.0, 0.0, 0.0, 0.0, 0.0, 1000000000000.0, 0.0, 0.0, 0.0, 0.0, 0.0, 0.0, 1000000000000.0, 0.0, 0.0, 0.0, 0.0, 0.0, 0.0, 1000000000000.0, 0.0, 0.0, 0.0, 0.0, 0.0, 0.0, 0.001]
twist: 
  twist: 
    linear: 
      x: 7.406260267922056e-08
      y: 6.722535539092673e-07
      z: 0.0
    angular: 
      x: 0.0
      y: 0.0
      z: 9.951402894133717e-06
  covariance: [0.0, 0.0, 0.0, 0.0, 0.0, 0.0, 0.0, 0.0, 0.0, 0.0, 0.0, 0.0, 0.0, 0.0, 0.0, 0.0, 0.0, 0.0, 0.0, 0.0, 0.0, 0.0, 0.0, 0.0, 0.0, 0.0, 0.0, 0.0, 0.0, 0.0, 0.0, 0.0, 0.0, 0.0, 0.0, 0.0]
---
header: 
  seq: 2157
  stamp: 
    secs: 72
    nsecs: 211000000
  frame_id: "odom"
child_frame_id: "base_footprint"
pose: 
  pose: 
    position: 
      x: -2.000026312330424
      y: -0.49995850391629215
      z: -0.0010013929922500324
    orientation: 
      x: -8.30436789719952e-06
      y: 0.0038530993634868778
      z: 0.0003225430072812503
      w: 0.9999925247332309
  covariance: [1e-05, 0.0, 0.0, 0.0, 0.0, 0.0, 0.0, 1e-05, 0.0, 0.0, 0.0, 0.0, 0.0, 0.0, 1000000000000.0, 0.0, 0.0, 0.0, 0.0, 0.0, 0.0, 1000000000000.0, 0.0, 0.0, 0.0, 0.0, 0.0, 0.0, 1000000000000.0, 0.0, 0.0, 0.0, 0.0, 0.0, 0.0, 0.001]
twist: 
  twist: 
    linear: 
      x: 7.406076941691015e-08
      y: 6.722653067256464e-07
      z: 0.0
    angular: 
      x: 0.0
      y: 0.0
      z: 9.951581832459277e-06
  covariance: [0.0, 0.0, 0.0, 0.0, 0.0, 0.0, 0.0, 0.0, 0.0, 0.0, 0.0, 0.0, 0.0, 0.0, 0.0, 0.0, 0.0, 0.0, 0.0, 0.0, 0.0, 0.0, 0.0, 0.0, 0.0, 0.0, 0.0, 0.0, 0.0, 0.0, 0.0, 0.0, 0.0, 0.0, 0.0, 0.0]
---
header: 
  seq: 2158
  stamp: 
    secs: 72
    nsecs: 245000000
  frame_id: "odom"
child_frame_id: "base_footprint"
pose: 
  pose: 
    position: 
      x: -2.0000263155701954
      y: -0.49995848491231604
      z: -0.0010013929922791237
    orientation: 
      x: -8.304945145414448e-06
      y: 0.003853099362496916
      z: 0.0003226928595488238
      w: 0.9999925246848843
  covariance: [1e-05, 0.0, 0.0, 0.0, 0.0, 0.0, 0.0, 1e-05, 0.0, 0.0, 0.0, 0.0, 0.0, 0.0, 1000000000000.0, 0.0, 0.0, 0.0, 0.0, 0.0, 0.0, 1000000000000.0, 0.0, 0.0, 0.0, 0.0, 0.0, 0.0, 1000000000000.0, 0.0, 0.0, 0.0, 0.0, 0.0, 0.0, 0.001]
twist: 
  twist: 
    linear: 
      x: 7.405898973888123e-08
      y: 6.722767161532357e-07
      z: 0.0
    angular: 
      x: 0.0
      y: 0.0
      z: 9.951755541808286e-06
  covariance: [0.0, 0.0, 0.0, 0.0, 0.0, 0.0, 0.0, 0.0, 0.0, 0.0, 0.0, 0.0, 0.0, 0.0, 0.0, 0.0, 0.0, 0.0, 0.0, 0.0, 0.0, 0.0, 0.0, 0.0, 0.0, 0.0, 0.0, 0.0, 0.0, 0.0, 0.0, 0.0, 0.0, 0.0, 0.0, 0.0]
---
header: 
  seq: 2159
  stamp: 
    secs: 72
    nsecs: 278000000
  frame_id: "odom"
child_frame_id: "base_footprint"
pose: 
  pose: 
    position: 
      x: -2.0000263188099803
      y: -0.49995846590829796
      z: -0.0010013929923081977
    orientation: 
      x: -8.305522394978298e-06
      y: 0.0038530993615067104
      z: 0.00032284271215727786
      w: 0.9999925246365156
  covariance: [1e-05, 0.0, 0.0, 0.0, 0.0, 0.0, 0.0, 1e-05, 0.0, 0.0, 0.0, 0.0, 0.0, 0.0, 1000000000000.0, 0.0, 0.0, 0.0, 0.0, 0.0, 0.0, 1000000000000.0, 0.0, 0.0, 0.0, 0.0, 0.0, 0.0, 1000000000000.0, 0.0, 0.0, 0.0, 0.0, 0.0, 0.0, 0.001]
twist: 
  twist: 
    linear: 
      x: 7.405720970084458e-08
      y: 6.722881282008285e-07
      z: 0.0
    angular: 
      x: 0.0
      y: 0.0
      z: 9.951929291839715e-06
  covariance: [0.0, 0.0, 0.0, 0.0, 0.0, 0.0, 0.0, 0.0, 0.0, 0.0, 0.0, 0.0, 0.0, 0.0, 0.0, 0.0, 0.0, 0.0, 0.0, 0.0, 0.0, 0.0, 0.0, 0.0, 0.0, 0.0, 0.0, 0.0, 0.0, 0.0, 0.0, 0.0, 0.0, 0.0, 0.0, 0.0]
---
header: 
  seq: 2160
  stamp: 
    secs: 72
    nsecs: 305000000
  frame_id: "odom"
child_frame_id: "base_footprint"
pose: 
  pose: 
    position: 
      x: -2.000026322147955
      y: -0.49995844632835634
      z: -0.001001392992338146
    orientation: 
      x: -8.306117138271801e-06
      y: 0.0038530993604864376
      z: 0.0003229971061116808
      w: 0.9999925245866572
  covariance: [1e-05, 0.0, 0.0, 0.0, 0.0, 0.0, 0.0, 1e-05, 0.0, 0.0, 0.0, 0.0, 0.0, 0.0, 1000000000000.0, 0.0, 0.0, 0.0, 0.0, 0.0, 0.0, 1000000000000.0, 0.0, 0.0, 0.0, 0.0, 0.0, 0.0, 1000000000000.0, 0.0, 0.0, 0.0, 0.0, 0.0, 0.0, 0.001]
twist: 
  twist: 
    linear: 
      x: 7.405537096907597e-08
      y: 6.722998482688317e-07
      z: 0.0
    angular: 
      x: 0.0
      y: 0.0
      z: 9.952108341237925e-06
  covariance: [0.0, 0.0, 0.0, 0.0, 0.0, 0.0, 0.0, 0.0, 0.0, 0.0, 0.0, 0.0, 0.0, 0.0, 0.0, 0.0, 0.0, 0.0, 0.0, 0.0, 0.0, 0.0, 0.0, 0.0, 0.0, 0.0, 0.0, 0.0, 0.0, 0.0, 0.0, 0.0, 0.0, 0.0, 0.0, 0.0]
---
header: 
  seq: 2161
  stamp: 
    secs: 72
    nsecs: 345000000
  frame_id: "odom"
child_frame_id: "base_footprint"
pose: 
  pose: 
    position: 
      x: -2.000026325387767
      y: -0.4999584273242526
      z: -0.0010013929923672407
    orientation: 
      x: -8.306694390543778e-06
      y: 0.003853099359496226
      z: 0.0003231469594148151
      w: 0.9999925245382424
  covariance: [1e-05, 0.0, 0.0, 0.0, 0.0, 0.0, 0.0, 1e-05, 0.0, 0.0, 0.0, 0.0, 0.0, 0.0, 1000000000000.0, 0.0, 0.0, 0.0, 0.0, 0.0, 0.0, 1000000000000.0, 0.0, 0.0, 0.0, 0.0, 0.0, 0.0, 1000000000000.0, 0.0, 0.0, 0.0, 0.0, 0.0, 0.0, 0.001]
twist: 
  twist: 
    linear: 
      x: 7.405359004749477e-08
      y: 6.723112655092726e-07
      z: 0.0
    angular: 
      x: 0.0
      y: 0.0
      z: 9.952282169118102e-06
  covariance: [0.0, 0.0, 0.0, 0.0, 0.0, 0.0, 0.0, 0.0, 0.0, 0.0, 0.0, 0.0, 0.0, 0.0, 0.0, 0.0, 0.0, 0.0, 0.0, 0.0, 0.0, 0.0, 0.0, 0.0, 0.0, 0.0, 0.0, 0.0, 0.0, 0.0, 0.0, 0.0, 0.0, 0.0, 0.0, 0.0]
---
header: 
  seq: 2162
  stamp: 
    secs: 72
    nsecs: 378000000
  frame_id: "odom"
child_frame_id: "base_footprint"
pose: 
  pose: 
    position: 
      x: -2.0000263286275928
      y: -0.49995840832010674
      z: -0.0010013929923963182
    orientation: 
      x: -8.307271644106753e-06
      y: 0.0038530993585058947
      z: 0.0003232968130604112
      w: 0.9999925244898051
  covariance: [1e-05, 0.0, 0.0, 0.0, 0.0, 0.0, 0.0, 1e-05, 0.0, 0.0, 0.0, 0.0, 0.0, 0.0, 1000000000000.0, 0.0, 0.0, 0.0, 0.0, 0.0, 0.0, 1000000000000.0, 0.0, 0.0, 0.0, 0.0, 0.0, 0.0, 1000000000000.0, 0.0, 0.0, 0.0, 0.0, 0.0, 0.0, 0.001]
twist: 
  twist: 
    linear: 
      x: 7.405181074649274e-08
      y: 6.723226718292718e-07
      z: 0.0
    angular: 
      x: 0.0
      y: 0.0
      z: 9.952455833656278e-06
  covariance: [0.0, 0.0, 0.0, 0.0, 0.0, 0.0, 0.0, 0.0, 0.0, 0.0, 0.0, 0.0, 0.0, 0.0, 0.0, 0.0, 0.0, 0.0, 0.0, 0.0, 0.0, 0.0, 0.0, 0.0, 0.0, 0.0, 0.0, 0.0, 0.0, 0.0, 0.0, 0.0, 0.0, 0.0, 0.0, 0.0]
---
header: 
  seq: 2163
  stamp: 
    secs: 72
    nsecs: 412000000
  frame_id: "odom"
child_frame_id: "base_footprint"
pose: 
  pose: 
    position: 
      x: -2.0000263319656093
      y: -0.4999583887400335
      z: -0.0010013929924262976
    orientation: 
      x: -8.307866391530367e-06
      y: 0.0038530993574854753
      z: 0.0003234512080833633
      w: 0.9999925244398763
  covariance: [1e-05, 0.0, 0.0, 0.0, 0.0, 0.0, 0.0, 1e-05, 0.0, 0.0, 0.0, 0.0, 0.0, 0.0, 1000000000000.0, 0.0, 0.0, 0.0, 0.0, 0.0, 0.0, 1000000000000.0, 0.0, 0.0, 0.0, 0.0, 0.0, 0.0, 1000000000000.0, 0.0, 0.0, 0.0, 0.0, 0.0, 0.0, 0.001]
twist: 
  twist: 
    linear: 
      x: 7.404997690996879e-08
      y: 6.723344281748451e-07
      z: 0.0
    angular: 
      x: 0.0
      y: 0.0
      z: 9.952634824456527e-06
  covariance: [0.0, 0.0, 0.0, 0.0, 0.0, 0.0, 0.0, 0.0, 0.0, 0.0, 0.0, 0.0, 0.0, 0.0, 0.0, 0.0, 0.0, 0.0, 0.0, 0.0, 0.0, 0.0, 0.0, 0.0, 0.0, 0.0, 0.0, 0.0, 0.0, 0.0, 0.0, 0.0, 0.0, 0.0, 0.0, 0.0]
---
header: 
  seq: 2164
  stamp: 
    secs: 72
    nsecs: 445000000
  frame_id: "odom"
child_frame_id: "base_footprint"
pose: 
  pose: 
    position: 
      x: -2.000026335205463
      y: -0.4999583697358022
      z: -0.0010013929924553681
    orientation: 
      x: -8.308443647776931e-06
      y: 0.0038530993564948384
      z: 0.00032360106242137104
      w: 0.9999925243913933
  covariance: [1e-05, 0.0, 0.0, 0.0, 0.0, 0.0, 0.0, 1e-05, 0.0, 0.0, 0.0, 0.0, 0.0, 0.0, 1000000000000.0, 0.0, 0.0, 0.0, 0.0, 0.0, 0.0, 1000000000000.0, 0.0, 0.0, 0.0, 0.0, 0.0, 0.0, 1000000000000.0, 0.0, 0.0, 0.0, 0.0, 0.0, 0.0, 0.001]
twist: 
  twist: 
    linear: 
      x: 7.404819706726956e-08
      y: 6.723458384815146e-07
      z: 0.0
    angular: 
      x: 0.0
      y: 0.0
      z: 9.952808548278849e-06
  covariance: [0.0, 0.0, 0.0, 0.0, 0.0, 0.0, 0.0, 0.0, 0.0, 0.0, 0.0, 0.0, 0.0, 0.0, 0.0, 0.0, 0.0, 0.0, 0.0, 0.0, 0.0, 0.0, 0.0, 0.0, 0.0, 0.0, 0.0, 0.0, 0.0, 0.0, 0.0, 0.0, 0.0, 0.0, 0.0, 0.0]
---
header: 
  seq: 2165
  stamp: 
    secs: 72
    nsecs: 477000000
  frame_id: "odom"
child_frame_id: "base_footprint"
pose: 
  pose: 
    position: 
      x: -2.0000263384453314
      y: -0.49995835073152883
      z: -0.0010013929924844352
    orientation: 
      x: -8.309020905340004e-06
      y: 0.003853099355504091
      z: 0.0003237509171019196
      w: 0.9999925243428877
  covariance: [1e-05, 0.0, 0.0, 0.0, 0.0, 0.0, 0.0, 1e-05, 0.0, 0.0, 0.0, 0.0, 0.0, 0.0, 1000000000000.0, 0.0, 0.0, 0.0, 0.0, 0.0, 0.0, 1000000000000.0, 0.0, 0.0, 0.0, 0.0, 0.0, 0.0, 1000000000000.0, 0.0, 0.0, 0.0, 0.0, 0.0, 0.0, 0.001]
twist: 
  twist: 
    linear: 
      x: 7.404641649561052e-08
      y: 6.72357254112457e-07
      z: 0.0
    angular: 
      x: 0.0
      y: 0.0
      z: 9.952982351876873e-06
  covariance: [0.0, 0.0, 0.0, 0.0, 0.0, 0.0, 0.0, 0.0, 0.0, 0.0, 0.0, 0.0, 0.0, 0.0, 0.0, 0.0, 0.0, 0.0, 0.0, 0.0, 0.0, 0.0, 0.0, 0.0, 0.0, 0.0, 0.0, 0.0, 0.0, 0.0, 0.0, 0.0, 0.0, 0.0, 0.0, 0.0]
---
header: 
  seq: 2166
  stamp: 
    secs: 72
    nsecs: 511000000
  frame_id: "odom"
child_frame_id: "base_footprint"
pose: 
  pose: 
    position: 
      x: -2.000026341783391
      y: -0.49995833115132426
      z: -0.0010013929925143938
    orientation: 
      x: -8.309615656955271e-06
      y: 0.0038530993544832904
      z: 0.0003239053131905628
      w: 0.9999925242928884
  covariance: [1e-05, 0.0, 0.0, 0.0, 0.0, 0.0, 0.0, 1e-05, 0.0, 0.0, 0.0, 0.0, 0.0, 0.0, 1000000000000.0, 0.0, 0.0, 0.0, 0.0, 0.0, 0.0, 1000000000000.0, 0.0, 0.0, 0.0, 0.0, 0.0, 0.0, 1000000000000.0, 0.0, 0.0, 0.0, 0.0, 0.0, 0.0, 0.001]
twist: 
  twist: 
    linear: 
      x: 7.404458329702138e-08
      y: 6.723690067098075e-07
      z: 0.0
    angular: 
      x: 0.0
      y: 0.0
      z: 9.953161286956075e-06
  covariance: [0.0, 0.0, 0.0, 0.0, 0.0, 0.0, 0.0, 0.0, 0.0, 0.0, 0.0, 0.0, 0.0, 0.0, 0.0, 0.0, 0.0, 0.0, 0.0, 0.0, 0.0, 0.0, 0.0, 0.0, 0.0, 0.0, 0.0, 0.0, 0.0, 0.0, 0.0, 0.0, 0.0, 0.0, 0.0, 0.0]
---
